{
"type": "FeatureCollection",
"name": "sites",
"crs": { "type": "name", "properties": { "name": "urn:ogc:def:crs:OGC:1.3:CRS84" } },
"features": [
{ "type": "Feature", "properties": { "fid": 1, "name": "SCO" }, "geometry": { "type": "Point", "coordinates": [ -90.020167, 35.138667, 62.7888 ] } },
{ "type": "Feature", "properties": { "fid": 2, "name": "LEB" }, "geometry": { "type": "Point", "coordinates": [ -90.031833, 35.145, 76.5048 ] } },
{ "type": "Feature", "properties": { "fid": 3, "name": "AZO" }, "geometry": { "type": "Point", "coordinates": [ -90.055833, 35.142167, 0.0 ] } },
{ "type": "Feature", "properties": { "fid": 4, "name": "HIL" }, "geometry": { "type": "Point", "coordinates": [ -89.868667, 35.105, 100.0 ] } },
{ "type": "Feature", "properties": { "fid": 5, "name": "MNO" }, "geometry": { "type": "Point", "coordinates": [ -89.892, 35.234667, 123.0 ] } },
{ "type": "Feature", "properties": { "fid": 6, "name": "CRW" }, "geometry": { "type": "Point", "coordinates": [ -89.866333, 34.9745, 0.0 ] } }
]
}
